     3.02           OBSERVATION DATA    G                   RINEX VERSION / TYPE
GR10 V3.22          CNES                20160327 235944 UTC PGM / RUN BY / DATE
SNR is mapped to RINEX snr flag value [1-9]                 COMMENT
LX:     < 12dBHz -> 1; 12-17dBHz -> 2; 18-23dBHz -> 3       COMMENT
       24-29dBHz -> 4; 30-35dBHz -> 5; 36-41dBHz -> 6       COMMENT
       42-47dBHz -> 7; 48-53dBHz -> 8; >= 54dBHz -> 9       COMMENT
CIBG                                                        MARKER NAME
23101M005                                                   MARKER NUMBER
REGINA              CNES                                    OBSERVER / AGENCY
1700870             LEICA GR10          3.22/6.521          REC # / TYPE / VERS
725039              LEIAR25.R4      LEIT                    ANT # / TYPE                                                
 -1837002.6304  6065627.3599  -716183.2716                  APPROX POSITION XYZ                                         
        0.0000        0.0000        0.0000                  ANTENNA: DELTA H/E/N                                        
G   16 C1C L1C D1C S1C C2S L2S D2S S2S C2W L2W D2W S2W C5Q  SYS / # / OBS TYPES
       L5Q D5Q S5Q                                          SYS / # / OBS TYPES
DBHZ                                                        SIGNAL STRENGTH UNIT
    30.000                                                  INTERVAL                                                    
  2016    03    28    00    00    0.0000000     GPS         TIME OF FIRST OBS
  2016    03    28    23    59   30.0000000     GPS         TIME OF LAST OBS
     0                                                      RCV CLOCK OFFS APPL
G L2S -0.25000                                              SYS / PHASE SHIFT
G L2X -0.25000                                              SYS / PHASE SHIFT
    17    17  1851     3                                    LEAP SECONDS
                                                            END OF HEADER

> 2016 03 28 00 00  0.0000000  0 12
G05  25021462.664   131488642.44307       -81.389          44.100    25021461.676   102458669.89306       -63.420          39.000    25021461.004   102458656.89606       -63.418          36.050  
G12  22777267.949   119695404.77708       380.471          49.050    22777263.940    93269155.89707       296.471          43.650    22777262.969    93269134.89207       296.470          42.850  
G14  23187187.740   121849478.62407      -297.011          46.700                                                                    23187182.982    94947627.06006      -231.437          37.800  
G15  24749692.922   130060461.44907     -2115.299          45.500    24749691.295   101345780.82306     -1648.288          39.250    24749690.554   101345780.81306     -1648.290          37.850  
G18  24504723.351   128773166.52207      1690.160          45.650                                                                    24504718.243   100342701.05305      1317.008          32.150  
G20  22836720.096   120007743.91608       967.071          48.200                                                                    22836715.468    93512501.90906       753.562          40.550  
G21  22206415.933   116695492.64208      3117.988          48.950                                                                    22206410.516    90931533.01607      2429.601          42.700  
G24  21502369.779   112995739.04608     -2463.904          49.550    21502368.532    88048643.66508     -1919.926          48.750    21502367.988    88048651.65707     -1919.926          47.150    21502368.688    84379955.11208     -1839.881          51.950  
G25  22544554.530   118472488.32608      1311.282          48.100    22544553.075    92316246.76507      1021.777          45.650    22544552.128    92316242.76207      1021.777          42.300    22544553.539    88469745.74608       979.228          50.700  
G29  21569238.974   113347150.21708     -1466.877          49.800    21569234.463    88322451.33007     -1143.022          45.900    21569233.606    88322441.33307     -1143.022          45.350  
G31  24768454.146   130159106.13507      3676.370          44.550    24768450.055   101422659.88906      2864.703          39.250    24768449.473   101422658.88006      2864.701          37.500  
G32  23697437.567   124530854.73507       -13.116          47.250    23697436.704    97037014.97907       -10.221          43.700    23697436.458    97037022.97706       -10.221          39.550    23697435.480    92993802.66007        -9.749          47.900  


> 2016 03 28 00 00 30.0000000  0 12
G05  25021944.082   131491171.52207       -87.361          45.400    25021943.055   102460640.54306       -68.077          38.250    25021942.407   102460627.54005       -68.075          35.950  
G12  22775101.769   119684022.30108       378.340          49.100    22775098.039    93260286.40707       294.809          43.550    22775097.075    93260265.39707       294.809          42.600  
G14  23188912.582   121858541.60107      -307.380          46.900                                                                    23188907.608    94954689.07806      -239.519          38.800  
G15  24761744.949   130123794.73207     -2106.812          46.700    24761743.238   101395131.29206     -1641.675          39.700    24761742.529   101395131.28706     -1641.676          37.500  
G18  24495047.825   128722321.26207      1699.602          45.900                                                                    24495043.056   100303081.33105      1324.364          33.650  
G20  22831204.407   119978759.24608       965.080          48.250                                                                    22831200.097    93489916.42806       752.009          39.750  
G21  22188639.315   116602075.99708      3109.768          49.150                                                                    22188634.009    90858740.81607      2423.194          42.250  
G24  21516473.588   113069854.95608     -2477.191          49.600    21516472.374    88106396.27608     -1930.280          48.600    21516471.782    88106404.27107     -1930.280          46.100    21516472.615    84435301.36008     -1849.810          52.000  
G25  22537062.015   118433116.06108      1313.544          48.300    22537060.836    92285567.05307      1023.540          45.600    22537060.028    92285563.05307      1023.540          42.650    22537061.546    88440344.35108       980.834          50.750  
G29  21577622.415   113391206.09908     -1470.300          49.900    21577617.938    88356780.56607     -1145.689          45.800    21577617.228    88356770.57007     -1145.689          45.400  
G31  24747470.205   130048834.79607      3675.021          45.650    24747466.157   101336734.16006      2863.648          37.650    24747465.795   101336733.15905      2863.648          33.400  
G32  23697539.407   124531389.10307       -22.640          46.750    23697538.209    97037431.33407       -17.643          42.800    23697537.750    97037439.33306       -17.644          38.600    23697537.371    92994201.63308       -16.817          48.000  


> 2016 03 28 00 01  0.0000000  0 12
G05  25022463.219   131493899.36907       -93.964          44.250    25022462.280   102462766.09906       -73.220          39.500    25022461.677   102462753.10006       -73.220          37.100  
G12  22772949.456   119672711.88408       375.987          49.100    22772945.830    93251473.02407       292.975          43.750    22772945.117    93251452.02107       292.975          42.300  
G14  23190697.892   121867923.05307      -317.866          46.600                                                                    23190692.787    94961999.26106      -247.688          39.050  
G15  24773751.327   130186886.48107     -2099.102          46.000    24773749.339   101444293.55706     -1635.669          39.850    24773748.609   101444293.56206     -1635.670          38.750  
G18  24485321.039   128671207.04907      1708.461          45.100                                                                    24485316.524   100263252.03505      1331.267          34.550  
G20  22825701.703   119949843.98607       962.684          47.950                                                                    22825697.732    93467385.01606       750.141          39.550  
G21  22170912.382   116508921.16308      3100.942          48.700                                                                    22170907.292    90786152.62807      2416.319          42.950  
G24  21530655.484   113144380.79408     -2490.716          49.000    21530654.209    88164468.30508     -1940.820          48.800    21530653.587    88164476.29407     -1940.820          46.650    21530654.502    84490953.71608     -1860.036          51.950  
G25  22529559.385   118393690.15707      1315.305          47.900    22529558.451    92254845.53207      1024.912          45.700    22529557.718    92254841.53307      1024.912          42.950    22529559.281    88410902.89108       982.186          50.700  
G29  21586027.665   113435376.79408     -1474.142          49.750    21586023.359    88391199.25607     -1148.683          45.950    21586022.709    88391189.25807     -1148.683          45.350  
G31  24726496.440   129938615.52807      3673.268          44.950    24726492.185   101250848.88506      2862.284          38.150    24726491.651   101250847.88805      2862.283          34.000  
G32  23697696.972   124532216.65407       -32.119          47.200    23697695.407    97038076.15206       -25.029          41.900    23697694.846    97038084.15706       -25.028          38.500    23697694.567    92994819.58907       -24.129          47.500  


> 2016 03 28 00 01 30.0000000  0 12
G05  25023020.363   131496826.84607      -100.799          45.800    25023019.535   102465047.21806       -78.547          40.050    25023019.041   102465034.22206       -78.546          36.900  
G12  22770811.332   119661475.23608       373.287          49.550    22770807.525    93242717.13707       290.871          43.650    22770806.960    93242696.14507       290.872          42.100  
G14  23192543.260   121877620.66007      -328.615          46.400                                                                    23192538.539    94969555.78706      -256.065          38.450  
G15  24785711.035   130249735.49707     -2090.920          46.550    24785709.258   101493266.68206     -1629.294          40.550    24785708.592   101493266.68506     -1629.293          38.050  
G18  24475543.118   128619824.18407      1717.219          44.100                                                                    24475538.341   100223213.38505      1338.092          34.100  
G20  22820213.022   119921000.16608       960.350          48.200                                                                    22820208.820    93444909.28006       748.323          39.600  
G21  22153235.608   116416030.43508      3091.889          48.750                                                                    22153230.741    90713770.23107      2409.265          42.750  
G24  21544914.942   113219314.62008     -2504.514          48.800    21544913.718    88222858.23808     -1951.571          48.800    21544913.170    88222866.23107     -1951.571          46.200    21544913.961    84546910.72308     -1870.262          52.050  
G25  22522046.898   118354212.03208      1316.823          48.050    22522045.989    92224083.32507      1026.094          45.550    22522045.178    92224079.32707      1026.095          42.050    22522046.933    88381422.42608       983.316          50.850  
G29  21594454.188   113479659.71608     -1477.930          49.550    21594450.112    88425705.38707     -1151.634          46.050    21594449.506    88425695.39007     -1151.635          45.700  
G31  24705532.962   129828451.04807      3671.233          46.050    24705528.908   101165006.36906      2860.699          40.050    24705528.351   101165005.36606      2860.701          36.750  
G32  23697910.135   124533335.41207       -42.206          47.350    23697908.243    97038947.88407       -32.886          42.900    23697907.392    97038955.87806       -32.887          38.650    23697907.122    92995654.94807       -31.487          47.550  


> 2016 03 28 00 02  0.0000000  0 12
G05  25023616.408   131499959.26407      -107.592          44.750    25023615.911   102467488.01606       -83.840          39.800    25023615.359   102467475.01806       -83.840          37.700  
G12  22768688.178   119650317.86608       370.798          48.950    22768684.186    93234023.02907       288.932          43.050    22768683.495    93234002.03606       288.931          41.700  
G14  23194449.233   121887635.71807      -338.960          46.300                                                                    23194444.692    94977359.66606      -264.127          38.200  
G15  24797625.490   130312343.97107     -2082.908          46.600    24797623.461   101542052.36106     -1623.051          40.500    24797623.057   101542052.36906     -1623.050          38.000  
G18  24465714.686   128568177.07607      1726.126          43.550                                                                    24465710.093   100182968.81405      1345.029          31.600  
G20  22814738.882   119892232.98807       957.924          47.300                                                                    22814734.741    93422493.27206       746.434          40.900  
G21  22135610.520   116323410.13408      3083.103          49.100                                                                    22135605.580    90641598.54707      2402.416          42.950  
G24  21559251.912   113294656.30208     -2517.905          48.200    21559250.782    88281565.97608     -1962.006          48.850    21559250.300    88281573.96707     -1962.006          46.150    21559251.154    84603172.30208     -1880.259          51.950  
G25  22514525.486   118314686.70907      1318.487          47.950    22514524.518    92193284.34507      1027.392          45.250    22514523.626    92193280.34607      1027.392          42.650    22514525.459    88351906.73008       984.627          50.650  
G29  21602902.251   113524055.26908     -1481.459          49.550    21602898.303    88460299.29107     -1154.385          46.050    21602897.717    88460289.29507     -1154.385          45.400  
G31  24684580.975   129718347.01007      3669.409          45.850    24684576.724   101079210.90806      2859.274          38.200    24684576.126   101079209.91505      2859.275          35.700  
G32  23698178.839   124534746.75007       -51.839          47.250    23698176.935    97040047.57207       -40.396          43.750    23698176.225    97040055.56806       -40.397          38.750    23698175.449    92996708.83607       -38.597          47.100  


> 2016 03 28 00 02 30.0000000  0 12
G05  25024251.126   131503294.56807      -114.572          44.550    25024250.745   102470086.93006       -89.277          39.950    25024250.088   102470073.92406       -89.278          37.050  
G12  22766579.837   119639237.92708       368.037          49.250    22766575.796    93225389.28807       286.782          43.350    22766574.864    93225368.29007       286.782          42.650  
G14  23196414.383   121897962.23507      -349.301          46.000                                                                    23196410.046    94985406.27906      -272.182          39.200  
G15  24809493.163   130374707.10507     -2074.526          46.900    24809490.907   101590646.91306     -1616.516          40.550    24809490.194   101590646.90706     -1616.516          37.900  
G18  24455835.532   128516262.73407      1734.977          42.800                                                                    24455831.380   100142516.04005      1351.928          34.750  
G20  22809278.949   119863541.15207       954.995          47.550                                                                    22809274.975    93400135.99406       744.153          40.750  
G21  22118036.741   116231059.33008      3073.929          48.850                                                                    22118031.871    90569636.87807      2395.270          43.150  
G24  21573665.464   113370400.51408     -2531.554          48.350    21573664.408    88340587.39308     -1972.640          48.650    21573663.979    88340595.38907     -1972.639          45.700    21573664.934    84659734.47808     -1890.380          51.750  
G25  22506994.760   118275112.20408      1319.979          48.000    22506993.789    92162447.03107      1028.555          45.850    22506992.870    92162443.03407      1028.556          43.200    22506994.452    88322354.30208       985.736          50.600  
G29  21611370.754   113568557.69108     -1485.129          49.800    21611366.895    88494976.47407     -1157.243          46.300    21611366.292    88494966.48007     -1157.243          45.850  
G31  24663640.166   129608302.23507      3667.238          45.350    24663636.122   100993461.65506      2857.586          40.100    24663635.222   100993460.65606      2857.586          36.850  
G32  23698502.026   124536445.07207       -61.291          47.200    23698500.478    97041370.89107       -47.760          44.050    23698500.122    97041378.89006       -47.760          40.250    23698498.529    92997977.00707       -45.744          47.350  


> 2016 03 28 00 03  0.0000000  0 12
G05  25024924.877   131506834.82007      -121.810          43.950    25024924.407   102472845.51806       -94.917          38.700    25024923.725   102472832.52006       -94.918          36.100  
G12  22764486.608   119628237.92608       365.111          49.150    22764482.635    93216817.82407       284.501          43.250    22764481.627    93216796.82406       284.501          41.950  
G14  23198438.445   121908599.08107      -359.873          46.250                                                                    23198434.017    94993694.67306      -280.422          39.200  
G15  24821313.644   130436824.80707     -2066.742          43.200    24821311.795   101639050.17806     -1610.454          40.300    24821311.097   101639050.19106     -1610.452          39.300  
G18  24445905.842   128464082.47207      1743.655          42.100                                                                    24445901.918   100101856.04805      1358.691          35.000  
G20  22803834.010   119834927.42107       952.290          47.800                                                                    22803830.142    93377839.56106       742.044          41.200  
G21  22100514.796   116138981.27608      3064.523          48.700                                                                    22100510.034    90497887.73107      2387.941          43.450  
G24  21588155.177   113446545.33608     -2545.090          48.300    21588154.293    88399920.96608     -1983.189          48.400    21588153.822    88399928.96107     -1983.189          45.900    21588154.680    84716595.81108     -1900.473          51.750  
G25  22499455.025   118235490.89107      1321.257          47.900    22499454.144    92131573.26907      1029.550          45.900    22499453.250    92131569.26707      1029.550          43.200    22499454.669    88292766.93008       986.737          50.700  
G29  21619859.285   113613165.08108     -1488.835          49.750    21619855.431    88529735.44107     -1160.132          46.000    21619854.795    88529725.44707     -1160.132          45.450  
G31  24642711.341   129498320.30207      3664.528          45.200    24642707.338   100907761.37006      2855.473          38.350    24642706.586   100907760.36906      2855.472          36.300  
G32  23698879.486   124538429.16207       -71.034          47.500    23698878.116    97042916.86107       -55.352          43.350    23698877.721    97042924.86006       -55.354          39.200    23698876.375    92999458.55907       -53.030          47.900  


> 2016 03 28 00 03 30.0000000  0 12
G05  25025638.495   131510585.02007      -128.557          44.800    25025637.986   102475767.69306      -100.176          38.600    25025637.123   102475754.69505      -100.174          34.700  
G12  22762409.532   119617322.92008       362.151          49.050    22762405.735    93208312.59507       282.195          43.900    22762404.775    93208291.59207       282.194          43.050  
G14  23200521.824   121919546.65607      -370.382          46.900                                                                    23200517.224    95002225.21106      -288.608          38.900  
G15  24833087.800   130498699.01907     -2058.739          45.400    24833086.092   101687263.75706     -1604.215          39.750    24833085.334   101687263.75806     -1604.216          36.350  
G18  24435926.148   128411639.94906      1751.939          41.550                                                                    24435922.679   100060991.74705      1365.151          35.300  
G20  22798404.789   119806396.73507       949.385          47.750                                                                    22798400.975    93355607.83806       739.781          40.750  
G21  22083045.805   116047181.59308      3055.011          49.150                                                                    22083041.186    90426355.51707      2380.528          43.050  
G24  21602721.314   113523091.37308     -2558.492          48.450    21602720.450    88459567.19408     -1993.631          48.050    21602719.913    88459575.18307     -1993.631          45.800    21602720.936    84773756.77908     -1910.619          51.850  
G25  22491907.285   118195827.31008      1322.590          48.050    22491906.414    92100666.56307      1030.590          45.900    22491905.596    92100662.56507      1030.590          42.950    22491906.923    88263148.01508       987.533          50.700  
G29  21628367.920   113657877.88908     -1492.432          49.400    21628364.062    88564576.56407     -1162.936          45.900    21628363.422    88564566.56807     -1162.935          45.700  
G31  24621795.376   129388406.55107      3662.156          44.950    24621791.279   100822114.19206      2853.628          38.750    24621790.581   100822113.18606      2853.626          36.000  
G32  23699311.543   124540699.93507       -80.641          47.200    23699310.292    97044686.24907       -62.838          43.250    23699309.828    97044694.26006       -62.838          39.050    23699308.984    93001154.25007       -60.337          47.900  


> 2016 03 28 00 04  0.0000000  0 12
G05  25026391.589   131514542.74707      -135.427          44.150    25026391.024   102478851.58406      -105.527          38.250    25026390.328   102478838.58905      -105.525          35.450  
G12  22760348.400   119606491.15308       359.660          49.400    22760344.613    93199872.20607       280.254          44.100    22760343.852    93199851.20207       280.253          42.700  
G14  23202663.141   121930799.51707      -380.200          46.500                                                                    23202658.707    95010993.60206      -296.261          39.250  
G15  24844814.535   130560324.90507     -2050.202          45.300    24844813.265   101735283.76006     -1597.566          39.800    24844812.721   101735283.76906     -1597.566          37.100  
G18  24425896.128   128358932.23906      1761.416          40.950                                                                    24425892.577   100019920.74705      1372.532          33.300  
G20  22792991.104   119777947.72207       947.101          47.650                                                                    22792987.189    93333439.75506       738.001          40.350  
G21  22065629.793   115955659.26008      3046.094          49.000                                                                    22065624.883    90355039.39607      2373.580          43.100  
G24  21617362.843   113600032.46208     -2571.288          48.800    21617361.901    88519521.24008     -2003.602          48.250    21617361.327    88519529.23107     -2003.602          46.000    21617362.487    84831212.71508     -1920.120          51.900  
G25  22484351.220   118156119.47908      1324.429          48.300    22484350.346    92069725.37007      1032.022          46.050    22484349.521    92069721.36907      1032.022          43.800    22484350.799    88233496.02508       988.950          50.750  
G29  21636895.517   113702690.02508     -1495.350          49.950    21636891.514    88599495.06907     -1165.209          45.750    21636890.933    88599485.07307     -1165.209          45.700  
G31  24600892.409   129278559.73907      3660.426          45.600    24600888.226   100736519.20606      2852.279          39.000    24600887.479   100736518.21206      2852.279          36.000  
G32  23699797.179   124543251.81007       -89.554          47.650    23699795.889    97046674.68007       -69.784          43.200    23699795.332    97046682.68806       -69.783          39.900    23699794.986    93003059.78408       -66.958          48.250  


> 2016 03 28 00 04 30.0000000  0 12
G05  25027184.587   131518710.16107      -142.756          44.850    25027184.079   102482098.89506      -111.239          38.550    25027183.513   102482085.89605      -111.237          35.800  
G12  22758303.853   119595745.92808       356.502          49.700    22758299.966    93191499.27007       277.792          43.900    22758299.028    93191478.26707       277.792          42.700  
G14  23204862.124   121942356.42807      -390.437          46.350                                                                    23204857.846    95019998.92106      -304.239          38.500  
G15  24856494.424   130621702.78007     -2042.086          44.050    24856493.097   101783110.56206     -1591.238          39.250    24856492.504   101783110.57606     -1591.236          36.500  
G18  24415816.103   128305961.25807      1769.483          42.100                                                                    24415812.633    99978644.63505      1378.814          35.100  
G20  22787593.720   119749583.77308       943.709          48.200                                                                    22787589.672    93311337.95406       735.357          39.850  
G21  22048267.156   115864417.90808      3036.368          49.200                                                                    22048262.244    90283942.23007      2366.000          43.250  
G24  21632079.364   113677367.40308     -2584.663          49.000    21632078.337    88579782.18908     -2014.026          48.300    21632077.596    88579790.18007     -2014.025          45.900    21632078.999    84888962.77408     -1930.048          51.850  
G25  22476787.306   118116370.29108      1325.489          48.450    22476786.422    92038751.95307      1032.847          46.050    22476785.617    92038747.95007      1032.847          43.550    22476786.737    88203813.15408       989.705          50.800  
G29  21645441.756   113747600.09708     -1498.922          49.650    21645437.596    88634489.88707     -1167.993          45.650    21645436.990    88634479.89307     -1167.993          45.300  
G31  24580002.871   129168783.85507      3657.741          44.600    24579998.549   100650979.49906      2850.186          38.550    24579997.928   100650978.49405      2850.185          35.550  
G32  23700336.349   124546083.90708       -99.380          48.000    23700334.677    97048881.46707       -77.441          42.600    23700334.042    97048889.46406       -77.441          39.250    23700334.565    93005174.60408       -74.192          48.300  


> 2016 03 28 00 05  0.0000000  0 12
G05  25028018.262   131523090.78007      -149.672          45.000    25028017.778   102485512.32806      -116.627          39.200    25028017.334   102485499.33705      -116.626          35.250  
G12  22756276.143   119585090.33008       353.339          49.150    22756272.331    93183196.16607       275.328          44.400    22756271.411    93183175.16807       275.328          43.150  
G14  23207119.196   121954216.53907      -400.713          46.950                                                                    23207114.412    95029240.52306      -312.244          37.950  
G15  24868126.913   130682833.02307     -2033.973          44.850    24868125.976   101830744.42106     -1584.917          40.900    24868125.411   101830744.42706     -1584.917          40.050  
G18  24405686.451   128252729.23106      1778.461          40.900                                                                    24405682.842    99937165.11005      1385.813          35.950  
G20  22782213.223   119721308.47408       940.846          48.300                                                                    22782209.033    93289305.22406       733.125          40.100  
G21  22030958.819   115773461.19908      3026.967          49.150                                                                    22030953.905    90213066.86107      2358.675          43.750  
G24  21646870.367   113755094.56008     -2597.777          48.600    21646869.438    88640348.73308     -2024.244          48.350    21646868.717    88640356.72607     -2024.244          46.400    21646869.933    84947005.71208     -1939.926          51.700  
G25  22469216.000   118076582.75608      1326.606          48.100    22469215.182    92007748.66307      1033.719          46.400    22469214.361    92007744.66007      1033.719          43.800    22469215.405    88174101.66008       990.638          50.850  
G29  21654006.234   113792606.84808     -1502.090          49.750    21654002.198    88669560.04707     -1170.461          45.800    21654001.469    88669550.04907     -1170.461          45.700  
G31  24559127.543   129059082.81907      3655.148          44.900    24559123.282   100565498.12306      2848.168          39.850    24559122.608   100565497.11006      2848.168          36.200  
G32  23700928.570   124549195.60507      -108.747          47.650    23700926.883    97051306.09607       -84.740          42.750    23700926.252    97051314.10206       -84.740          38.850    23700926.951    93007498.20308       -81.065          48.200  


> 2016 03 28 00 05 30.0000000  0 12
G05  25028892.938   131527686.25207      -156.308          45.300    25028892.382   102489093.22206      -121.797          38.600    25028892.037   102489080.22205      -121.798          35.000  
G12  22754266.016   119574526.53608       350.930          49.300    22754262.124    93174964.59207       273.451          44.350    22754261.357    93174943.59707       273.451          43.250  
G14  23209433.714   121966377.64307      -410.148          46.350                                                                    23209428.704    95038716.66006      -319.595          38.850  
G15  24879712.264   130743714.49607     -2024.918          44.750    24879711.628   101878184.41106     -1577.862          39.850    24879711.111   101878184.42206     -1577.862          36.350  
G18  24395507.470   128199236.92507      1787.652          42.000                                                                    24395503.471    99895482.77605      1392.976          35.450  
G20  22776849.945   119693123.45808       938.413          48.050                                                                    22776845.572    93267342.84906       731.229          40.550  
G21  22013705.265   115682792.54708      3017.735          48.850                                                                    22013700.276    90142415.96107      2351.481          43.750  
G24  21661735.664   113833212.15908     -2610.065          48.550    21661734.777    88701219.55108     -2033.818          48.400    21661733.992    88701227.54007     -2033.818          46.550    21661735.232    85005340.22608     -1949.088          51.600  
G25  22461637.818   118036758.70808      1328.410          48.200    22461637.028    91976716.92107      1035.125          46.600    22461636.205    91976712.91107      1035.124          43.900    22461637.128    88144362.89508       992.011          50.850  
G29  21662588.914   113837708.35408     -1504.583          49.700    21662584.745    88704704.04007     -1172.403          45.600    21662583.946    88704694.05107     -1172.403          45.700  
G31  24538266.736   128949459.09007      3653.116          44.150    24538262.692   100480076.98006      2846.584          39.550    24538261.779   100480075.96506      2846.584          38.050  
G32  23701573.541   124552585.02107      -117.453          46.750    23701571.697    97053947.15507       -91.522          42.350    23701570.843    97053955.14906       -91.524          37.850    23701571.862    93010029.19007       -87.535          47.850  


> 2016 03 28 00 06  0.0000000  0 12
G05  25029808.659   131532497.17407      -163.964          46.250    25029807.761   102492841.96506      -127.765          37.850    25029806.885   102492828.95805      -127.765          35.150  
G12  22752273.534   119564055.94408       347.480          49.550    22752269.632    93166805.65007       270.762          44.200    22752268.974    93166784.65407       270.761          43.450  
G14  23211804.739   121978836.88307      -420.311          46.300                                                                    23211799.710    95048425.11306      -327.515          38.500  
G15  24891249.995   130804345.81107     -2017.008          44.950    24891249.413   101925429.48306     -1571.698          39.000    24891248.807   101925429.48706     -1571.697          38.050  
G18  24385278.942   128145484.38607      1796.163          42.600                                                                    24385274.971    99853597.65305      1399.604          33.900  
G20  22771504.094   119665030.59808       934.659          48.100                                                                    22771499.589    93245452.28206       728.305          39.700  
G21  21996506.681   115592413.69808      3007.701          48.850                                                                    21996501.635    90071990.88407      2343.663          43.950  
G24  21676674.656   113911716.77708     -2623.273          48.350    21676673.785    88762391.92608     -2044.110          48.300    21676673.005    88762399.92107     -2044.110          46.050    21676674.190    85063963.75008     -1958.962          51.750  
G25  22454052.718   117996899.17307      1329.117          47.800    22454052.021    91945657.50507      1035.674          46.350    22454051.269    91945653.50007      1035.674          44.050    22454052.161    88114597.61908       992.592          51.000  
G29  21671188.895   113882900.88108     -1507.856          49.600    21671184.628    88739918.96507     -1174.953          46.050    21671183.852    88739908.96907     -1174.954          45.800  
G31  24517421.166   128839914.88807      3650.081          44.500    24517417.290   100394717.80506      2844.217          40.050    24517416.374   100394716.80006      2844.218          37.050  
G32  23702270.327   124556249.39507      -126.657          46.200    23702268.951    97056802.44607       -98.696          43.250    23702268.068    97056810.44006       -98.697          38.700    23702269.041    93012765.50907       -94.782          47.800  


> 2016 03 28 00 06 30.0000000  0 12
G05  25030765.572   131537524.85907      -170.908          45.550    25030764.230   102496759.59306      -133.175          37.400    25030763.227   102496746.59505      -133.177          34.800  
G12  22750299.075   119553680.45208       344.499          49.050    22750295.325    93158720.78907       268.438          44.350    22750294.620    93158699.79407       268.438          43.500  
G14  23214231.723   121991591.87007      -429.696          46.550                                                                    23214227.035    95058364.00806      -334.829          38.700  
G15  24902739.900   130864725.90207     -2008.184          44.100    24902739.406   101972478.75806     -1564.822          39.400    24902738.985   101972478.76706     -1564.823          38.350  
G18  24375001.030   128091472.85507      1804.955          43.200                                                                    24374997.229    99811510.68905      1406.455          35.250  
G20  22766176.005   119637031.82007       931.994          47.950                                                                    22766171.615    93223635.02106       726.227          40.250  
G21  21979363.906   115502326.98008      2998.323          49.450                                                                    21979358.585    90001793.42107      2336.355          43.800  
G24  21691686.716   113990605.73007     -2635.625          47.850    21691685.931    88823863.76108     -2053.736          48.650    21691685.221    88823871.75907     -2053.736          46.500    21691686.583    85122874.26208     -1968.184          51.850  
G25  22446461.107   117957005.73108      1330.561          48.100    22446460.574    91914571.67407      1036.800          46.300    22446459.829    91914567.67207      1036.800          43.500    22446460.814    88084807.03108       993.685          51.050  
G29  21679805.756   113928182.15508     -1510.521          49.400    21679801.476    88775203.02007     -1177.031          46.150    21679800.825    88775193.02907     -1177.030          45.950  
G31  24496591.207   128730452.52107      3647.716          45.250    24496587.345   100309422.43706      2842.374          40.400    24496586.708   100309421.43406      2842.375          37.650  
G32  23703019.398   124560186.62907      -135.573          46.800    23703018.392    97059870.32107      -105.645          43.200    23703017.776    97059878.32206      -105.645          39.000    23703017.859    93015705.55007      -101.161          47.700  


> 2016 03 28 00 07  0.0000000  0 12
G05  25031764.007   131542771.77107      -178.206          46.000    25031762.795   102500848.06306      -138.863          38.500    25031761.925   102500835.05506      -138.864          37.000  
G12  22748343.138   119543402.70908       341.430          49.400    22748339.584    93150712.11107       266.048          44.350    22748338.842    93150691.11507       266.047          43.200  
G14  23216714.992   122004641.04007      -439.530          46.900                                                                    23216710.254    95068532.14806      -342.490          38.500  
G15  24914182.119   130924854.13707     -1999.562          45.000    24914181.371   102019331.84206     -1558.104          39.650    24914180.713   102019331.84406     -1558.105          38.000  
G18  24364673.959   128037203.26207      1813.519          42.650                                                                    24364670.107    99769222.67405      1413.134          35.000  
G20  22760866.152   119609129.78707       928.777          47.950                                                                    22760862.108    93201893.15906       723.721          40.150  
G21  21962277.339   115412535.34108      2988.314          49.650                                                                    21962271.808    89931825.88207      2328.555          44.400  
G24  21706771.516   114069877.12107     -2648.361          47.900    21706770.863    88885633.60008     -2063.661          48.400    21706770.232    88885641.59707     -2063.661          45.200    21706771.709    85182070.34208     -1977.603          51.850  
G25  22438863.687   117917080.68908      1331.594          48.450    22438863.008    91883461.21507      1037.604          46.500    22438862.355    91883457.21207      1037.604          42.650    22438863.499    88054992.83808       994.517          51.100  
G29  21688439.091   113973550.36008     -1513.293          49.850    21688434.874    88810554.83007     -1179.190          46.500    21688434.370    88810544.83707     -1179.191          45.600  
G31  24475777.436   128621075.41207      3644.954          45.100    24475773.703   100224193.51006      2840.224          40.000    24475773.030   100224192.50006      2840.223          37.100  
G32  23703820.720   124564395.14807      -144.559          47.500    23703819.226    97063149.65107      -112.644          42.900    23703818.548    97063157.64606      -112.645          38.750    23703818.254    93018848.21507      -107.701          47.550  


> 2016 03 28 00 07 30.0000000  0 12
G05  25032804.105   131548238.28207      -186.199          45.000    25032803.220   102505107.65106      -145.091          38.050    25032802.372   102505094.66505      -145.087          35.950  
G12  22746405.949   119533223.25608       337.234          49.150    22746402.559    93142780.03307       262.779          44.400    22746401.870    93142759.03307       262.779          42.850  
G14  23219253.252   122017980.73007      -449.856          45.950                                                                    23219248.515    95078926.63906      -350.540          38.400  
G15  24925575.765   130984728.72307     -1991.719          45.200    24925575.224   102065987.21606     -1551.994          39.050    24925574.594   102065987.22006     -1551.993          37.550  
G18  24354297.538   127982675.47507      1821.753          43.450                                                                    24354293.978    99726733.45105      1419.548          35.650  
G20  22755574.907   119581325.72207       924.827          47.900                                                                    22755571.502    93180227.62506       720.643          39.500  
G21  21945247.039   115323040.89508      2977.845          49.250                                                                    21945241.689    89862089.94107      2320.398          44.250  
G24  21721928.444   114149527.32508     -2661.638          48.550    21721927.785    88947698.62308     -2074.006          48.100    21721927.167    88947706.61807     -2074.006          45.750    21721928.773    85241549.31408     -1987.592          51.750  
G25  22431260.357   117877124.66808      1332.128          48.550    22431259.649    91852326.63207      1038.021          46.000    22431258.896    91852322.63607      1038.021          43.000    22431260.209    88025155.53508       994.690          50.950  
G29  21697088.188   114019001.76308     -1516.765          49.300    21697084.093    88845971.46507     -1181.897          46.150    21697083.652    88845961.46807     -1181.897          45.300  
G31  24454980.451   128511784.82507      3641.181          45.350    24454976.575   100139031.99006      2837.285          40.350    24454975.846   100139030.98206      2837.283          37.650  
G32  23704673.036   124568871.85407      -153.974          47.500    23704671.089    97066637.94907      -119.981          42.700    23704670.290    97066645.95306      -119.980          39.800    23704670.199    93022191.15707      -115.014          47.650  


> 2016 03 28 00 08  0.0000000  0 12
G05  25033886.225   131553925.84107      -193.396          45.050    25033885.676   102509539.47706      -150.700          38.100    25033885.148   102509526.49005      -150.700          34.850  
G12  22744487.817   119523144.41208       334.099          48.250    22744484.618    93134926.34807       260.335          44.150    22744483.841    93134905.34407       260.336          43.700  
G14  23221846.657   122031609.61507      -459.199          46.200                                                                    23221841.680    95089546.49906      -357.819          37.000  
G15  24936921.253   131044348.94907     -1983.164          43.700    24936920.748   102112444.38806     -1545.327          39.200    24936920.058   102112444.39706     -1545.326          36.350  
G18  24343872.551   127927890.74807      1830.226          43.850                                                                    24343868.915    99684044.01405      1426.148          35.500  
G20  22750303.089   119553621.86508       921.788          48.300                                                                    22750299.962    93158640.18406       718.276          40.750  
G21  21928273.824   115233846.42708      2968.163          48.950                                                                    21928268.679    89792587.75707      2312.855          44.150  
G24  21737157.099   114229553.91708     -2673.911          48.400    21737156.265    89010056.96707     -2083.568          47.800    21737155.561    89010064.95707     -2083.569          45.300    21737157.175    85301309.36308     -1996.727          51.700  
G25  22423651.636   117837139.81408      1333.201          48.600    22423650.762    91821169.60307      1038.858          45.800    22423649.804    91821165.60107      1038.858          42.950    22423651.282    87995296.70208       995.529          50.950  
G29  21705752.706   114064534.35808     -1519.198          49.400    21705748.731    88881451.36507     -1183.792          45.800    21705748.222    88881441.37207     -1183.792          45.600  
G31  24434200.250   128402583.10907      3638.405          44.700    24434195.806   100053939.69406      2835.120          39.900    24434194.986   100053938.69806      2835.121          38.150  
G32  23705575.832   124573615.05007      -162.474          47.250    23705573.809    97070333.88907      -126.604          43.150    23705573.022    97070341.88906      -126.603          39.650    23705572.902    93025733.09007      -121.443          47.900  


> 2016 03 28 00 08 30.0000000  0 12
G05  25035011.183   131559837.98507      -200.851          44.200    25035010.732   102514146.28906      -156.509          38.250    25035010.242   102514133.29505      -156.509          34.700  
G12  22742589.758   119513170.08608       330.731          49.050    22742586.696    93127154.07907       257.710          44.550    22742585.834    93127133.07507       257.710          43.500  
G14  23224495.006   122045526.69507      -468.681          46.600                                                                    23224490.366    95100390.93706      -365.207          39.250  
G15  24948218.438   131103715.63007     -1974.602          44.000    24948217.932   102158704.01506     -1538.656          39.250    24948217.277   102158704.01606     -1538.658          36.850  
G18  24333399.349   127872851.61307      1839.034          44.650                                                                    24333395.388    99641156.33805      1433.015          34.750  
G20  22745051.131   119526022.36708       918.102          48.600                                                                    22745047.865    93137134.04506       715.403          40.400  
G21  21911358.591   115144956.12308      2957.989          49.350                                                                    21911353.538    89723322.56107      2304.926          44.650  
G24  21752457.216   114309956.21708     -2686.261          48.650    21752456.342    89072708.05408     -2093.192          48.000    21752455.727    89072716.04607     -2093.192          45.550    21752457.060    85361349.98208     -2005.975          51.550  
G25  22416038.285   117797129.61308      1334.122          48.850    22416037.045    91789992.79707      1039.574          45.700    22416035.992    91789988.79207      1039.574          43.450    22416037.514    87965418.91908       996.264          50.850  
G29  21714432.630   114110147.46708     -1521.721          49.550    21714428.596    88916994.01907     -1185.758          45.900    21714428.005    88916984.02307     -1185.758          45.450  
G31  24413437.788   128293475.55107      3635.388          45.000    24413433.399    99968920.81006      2832.768          39.850    24413432.674    99968919.80606      2832.769          38.900  
G32  23706528.767   124578624.36907      -171.418          46.950    23706527.256    97074237.18807      -133.575          43.550    23706526.473    97074245.19706      -133.574          39.300    23706526.249    93029473.74707      -128.021          47.600  


> 2016 03 28 00 09  0.0000000  0 12
G05  25036179.683   131565977.88207      -208.542          45.000    25036179.194   102518930.57706      -162.502          37.300    25036178.373   102518917.57705      -162.503          35.450  
G12  22740712.767   119503304.27308       326.826          49.300    22740709.512    93119466.39007       254.669          44.850    22740708.904    93119445.38707       254.668          42.900  
G14  23227198.384   122059731.64607      -478.381          46.650                                                                    23227193.731    95111459.67406      -372.767          38.800  
G15  24959467.562   131162829.75107     -1966.438          44.100    24959467.272   102204766.81706     -1532.295          39.000    24959466.603   102204766.83405     -1532.293          35.100  
G18  24322878.290   127817560.58807      1847.136          44.050                                                                    24322874.152    99598072.39006      1439.328          36.400  
G20  22739819.907   119498531.03708       914.373          48.700                                                                    22739816.418    93115712.19706       712.498          40.050  
G21  21894501.875   115056374.29508      2947.298          49.200                                                                    21894496.830    89654297.73907      2296.596          43.700  
G24  21767828.634   114390733.48708     -2699.046          48.750    21767827.790    89135651.32307     -2103.154          47.100    21767827.087    89135659.31707     -2103.154          44.700    21767828.362    85421670.61108     -2015.513          51.650  
G25  22408420.577   117757097.69908      1334.603          48.750    22408419.138    91758799.06507      1039.950          45.600    22408418.127    91758795.06607      1039.950          43.050    22408419.782    87935524.93308       996.557          50.900  
G29  21723127.536   114155840.26308     -1524.575          49.200    21723123.705    88952598.75907     -1187.982          45.450    21723123.077    88952588.76207     -1187.982          45.100  
G31  24392694.224   128184466.38907      3631.743          45.400    24392689.729    99883978.55606      2829.930          40.150    24392689.029    99883977.55506      2829.930          38.750  
G32  23707532.385   124583899.58507      -180.512          46.850    23707531.314    97078347.70307      -140.660          42.850    23707530.623    97078355.69506      -140.660          39.150    23707530.217    93033412.97307      -134.909          47.650  